{
  "type": "FeatureCollection",
  "features": [
    {
      "type": "Feature",
      "geometry": {
        "type": "Point",
        "coordinates": [
          -97.507493,
          25.958103
        ]
      },
      "properties": {
        "Name": "Veterans International Bridge Los Tomates",
        "City": "Brownsville",
        "State": "Texas",
        "County": "Cameron",
        "Address": "3300 S. Expressway77/83. Brownsville, TX 78521",
        "Sources": "http://ftp.dot.state.tx.us/pub/txdot-info/iro/international-bridges.pdf"
      }
    },
    {
      "type": "Feature",
      "geometry": {
        "type": "Point",
        "coordinates": [
          -97.497278,
          25.899196
        ]
      },
      "properties": {
        "Name": "Gateway International Bridge",
        "City": "Brownsville",
        "State": "Texas",
        "County": "Cameron",
        "Address": "",
        "Sources": "https://www.mexpro.com/blog/cross-u-s-mexican-border-arizona"
      }
    },
    {
      "type": "Feature",
      "geometry": {
        "type": "Point",
        "coordinates": [
          -97.738782,
          26.029376
        ]
      },
      "properties": {
        "Name": "Los Indios International Bridge",
        "City": "San Benito",
        "State": "Texas",
        "County": "Cameron",
        "Address": "Free Trade Bridge, San Benito, TX 78586",
        "Sources": "https://www.mexpro.com/blog/cross-new-mexicomexican-border"
      }
    },
    {
      "type": "Feature",
      "geometry": {
        "type": "Point",
        "coordinates": [
          -98.075123,
          26.066122
        ]
      },
      "properties": {
        "Name": "Donna Rio Bravo International Bridge",
        "City": "Donna",
        "State": "Texas",
        "County": "Hidalgo",
        "Address": "8000 S., International Blvd, Donna, TX 78537",
        "Sources": ""
      }
    },
    {
      "type": "Feature",
      "geometry": {
        "type": "Point",
        "coordinates": [
          -98.200143,
          26.088917
        ]
      },
      "properties": {
        "Name": "Phar-Reynosa International Bridge on the Rise",
        "City": "Pharr",
        "State": "Texas",
        "County": "Hidalgo",
        "Address": "9900 S Cage Blvd, Pharr, TX 78577",
        "Sources": ""
      }
    },
    {
      "type": "Feature",
      "geometry": {
        "type": "Point",
        "coordinates": [
          -98.269863,
          26.097073
        ]
      },
      "properties": {
        "Name": "McAllen-Hidalgo International Bridge",
        "City": "McAllen",
        "State": "Texas",
        "County": "Hidalgo",
        "Address": "1023 International Blvd, Hidalgo, TX 78557",
        "Sources": ""
      }
    },
    {
      "type": "Feature",
      "geometry": {
        "type": "Point",
        "coordinates": [
          -98.317278,
          26.117662
        ]
      },
      "properties": {
        "Name": "Anzalduas International Bridge",
        "City": "Mission",
        "State": "Texas",
        "County": "Hidalgo",
        "Address": "78572, 5911 Stewart Rd, Mission, TX 78573",
        "Sources": ""
      }
    },
    {
      "type": "Feature",
      "geometry": {
        "type": "Point",
        "coordinates": [
          -98.801455,
          26.367419
        ]
      },
      "properties": {
        "Name": "Starr Camargo Bridge",
        "City": "Rio Grande City",
        "State": "Texas",
        "County": "Starr",
        "Address": "405 Estrella St # C, Roma, TX 78584",
        "Sources": ""
      }
    },
    {
      "type": "Feature",
      "geometry": {
        "type": "Point",
        "coordinates": [
          -99.167149,
          26.559538
        ]
      },
      "properties": {
        "Name": "Falcon Dam Port of Entry",
        "City": "Falcon",
        "State": "Texas",
        "County": "Starr",
        "Address": "FM 2098 Spur, Falcon Heights, Texas 78545",
        "Sources": "https://en.wikipedia.org/wiki/List_of_Mexico%E2%80%93United_States_border_crossings#Texas%E2%80%93Tamaulipas"
      }
    },
    {
      "type": "Feature",
      "geometry": {
        "type": "Point",
        "coordinates": [
          -99.018831,
          26.403738
        ]
      },
      "properties": {
        "Name": "Roma-Ciudad Miguel Alemán International Bridge",
        "City": "Roma",
        "State": "Texas",
        "County": "Starr",
        "Address": "405 N. Estrella St., Suite B. Roma, TX 78584",
        "Sources": "https://www.cbp.gov/contact/ports"
      }
    },
    {
      "type": "Feature",
      "geometry": {
        "type": "Point",
        "coordinates": [
          -100.918164,
          29.334091
        ]
      },
      "properties": {
        "Name": "Del Rio Port of Entry",
        "City": "Del Rio",
        "State": "Texas",
        "County": "Val Verde",
        "Address": "3140 Spur 239, International Bridge. Del Rio, TX 78840",
        "Sources": ""
      }
    },
    {
      "type": "Feature",
      "geometry": {
        "type": "Point",
        "coordinates": [
          -98.563649,
          26.239534
        ]
      },
      "properties": {
        "Name": "Los Ebanos - Diaz Ordaz Ferry",
        "City": "Los Ebanos",
        "State": "Texas",
        "County": "Hidalgo",
        "Address": "200 Flores St, Los Ebanos, TX 78565",
        "Sources": ""
      }
    },
    {
      "type": "Feature",
      "geometry": {
        "type": "Point",
        "coordinates": [
          -99.502453,
          27.500673
        ]
      },
      "properties": {
        "Name": "Juárez-Lincoln International Bridge #2",
        "City": "Laredo",
        "State": "Texas",
        "County": "Webb",
        "Address": "700 Zaragoza St, Laredo, TX 78040",
        "Sources": ""
      }
    },
    {
      "type": "Feature",
      "geometry": {
        "type": "Point",
        "coordinates": [
          -99.50724,
          27.501592
        ]
      },
      "properties": {
        "Name": "Gateway to the Americas International Bridge #1",
        "City": "Laredo",
        "State": "Texas",
        "County": "Webb",
        "Address": "100 Convent Ave, Laredo, TX 78040",
        "Sources": ""
      }
    },
    {
      "type": "Feature",
      "geometry": {
        "type": "Point",
        "coordinates": [
          -99.542805,
          27.595341
        ]
      },
      "properties": {
        "Name": "World Trade Bridge #3",
        "City": "Laredo",
        "State": "Texas",
        "County": "Webb",
        "Address": "11601 Farm to Market 1472, Laredo, TX 78045",
        "Sources": ""
      }
    },
    {
      "type": "Feature",
      "geometry": {
        "type": "Point",
        "coordinates": [
          -99.74496,
          27.700476
        ]
      },
      "properties": {
        "Name": "Laredo Colombia Solidarity International Bridge Bridge #4",
        "City": "Laredo",
        "State": "Texas",
        "County": "Webb",
        "Address": "TX-255, Laredo, TX 78045",
        "Sources": ""
      }
    },
    {
      "type": "Feature",
      "geometry": {
        "type": "Point",
        "coordinates": [
          -100.506111,
          28.70583
        ]
      },
      "properties": {
        "Name": "Eagle Pass International Bridge I",
        "City": "",
        "State": "Texas",
        "County": "Eagle Pass",
        "Address": "160 E Garrison St, Eagle Pass, TX 78852",
        "Sources": ""
      }
    },
    {
      "type": "Feature",
      "geometry": {
        "type": "Point",
        "coordinates": [
          -100.917931,
          29.334519
        ]
      },
      "properties": {
        "Name": "Del Río-Ciudad Acuña",
        "City": "",
        "State": "Texas",
        "County": "Del Río",
        "Address": "3140 State Loop 239, Del Rio, TX 78840",
        "Sources": ""
      }
    },
    {
      "type": "Feature",
      "geometry": {
        "type": "Point",
        "coordinates": [
          -101.060862,
          29.453381
        ]
      },
      "properties": {
        "Name": "* Puente Internacional Presa la Amistad",
        "City": "",
        "State": "Coahuila",
        "County": "Del Río",
        "Address": "Highway 2, Del Rio, Coah.",
        "Sources": ""
      }
    },
    {
      "type": "Feature",
      "geometry": {
        "type": "Point",
        "coordinates": [
          -104.390693,
          29.562386
        ]
      },
      "properties": {
        "Name": "Presidio-Ojinaga Port of Entry",
        "City": "",
        "State": "Texas",
        "County": "Presidio",
        "Address": "4902 US-67, Presidio, TX 79845",
        "Sources": ""
      }
    },
    {
      "type": "Feature",
      "geometry": {
        "type": "Point",
        "coordinates": [
          -106.115289,
          31.448063
        ]
      },
      "properties": {
        "Name": "Fort Hancock Port of Entry",
        "City": "",
        "State": "Texas",
        "County": "Fort Hancock",
        "Address": "828 South HWY 1088, Fort Hancock, TX 79839",
        "Sources": ""
      }
    },
    {
      "type": "Feature",
      "geometry": {
        "type": "Point",
        "coordinates": [
          -106.148754,
          31.43259
        ]
      },
      "properties": {
        "Name": "Tornillo-Guadalupe International Bridge",
        "City": "",
        "State": "Texas",
        "County": "Tornillo",
        "Address": "18051 Island Guadalupe Rd, Fabens, TX 79838",
        "Sources": ""
      }
    },
    {
      "type": "Feature",
      "geometry": {
        "type": "Point",
        "coordinates": [
          -106.334967,
          31.672268
        ]
      },
      "properties": {
        "Name": "Ysleta-Zaragoza International Bridge",
        "City": "",
        "State": "Texas",
        "County": "El Paso",
        "Address": "797 S Zaragoza Rd, El Paso, TX 79927",
        "Sources": ""
      }
    },
    {
      "type": "Feature",
      "geometry": {
        "type": "Point",
        "coordinates": [
          -106.45062,
          31.763936
        ]
      },
      "properties": {
        "Name": "Cordova Bridge of the Americas International Bridge",
        "City": "",
        "State": "Texas",
        "County": "El Paso",
        "Address": "3600 E Paisano Dr, El Paso, TX 79905",
        "Sources": ""
      }
    },
    {
      "type": "Feature",
      "geometry": {
        "type": "Point",
        "coordinates": [
          -106.48627,
          31.750112
        ]
      },
      "properties": {
        "Name": "Paso del Norte International Bridge",
        "City": "",
        "State": "Texas",
        "County": "El Paso",
        "Address": "1011-1083 S El Paso St, El Paso, TX 79901",
        "Sources": ""
      }
    },
    {
      "type": "Feature",
      "geometry": {
        "type": "Point",
        "coordinates": [
          -106.485852,
          31.750185
        ]
      },
      "properties": {
        "Name": "Santa Fe Port of Entry",
        "City": "",
        "State": "Texas",
        "County": "El Paso",
        "Address": "S Stanton St, El Paso, TX 79901",
        "Sources": ""
      }
    },
    {
      "type": "Feature",
      "geometry": {
        "type": "Point",
        "coordinates": [
          -106.678989,
          31.783094
        ]
      },
      "properties": {
        "Name": "Santa Teresa-San Jerónimo Border",
        "City": "",
        "State": "New Mexico",
        "County": "Santa Teresa",
        "Address": "170 Pete V Domenici Hwy, Santa Teresa, NM 88008",
        "Sources": ""
      }
    },
    {
      "type": "Feature",
      "geometry": {
        "type": "Point",
        "coordinates": [
          -107.627837,
          31.783841
        ]
      },
      "properties": {
        "Name": "Columbus-Puerto Palomas International Bridge",
        "City": "",
        "State": "New Mexico",
        "County": "Columbus",
        "Address": "NM-11, Mile Marker 0, Columbus, NM 88029",
        "Sources": ""
      }
    },
    {
      "type": "Feature",
      "geometry": {
        "type": "Point",
        "coordinates": [
          -108.528292,
          31.340376
        ]
      },
      "properties": {
        "Name": "Antelope Wells-El Berrendo International Bridge",
        "City": "",
        "State": "New Mexico",
        "County": "Hachita ",
        "Address": "NM-81, Hachita, NM 88040",
        "Sources": ""
      }
    },
    {
      "type": "Feature",
      "geometry": {
        "type": "Point",
        "coordinates": [
          -109.559351,
          31.334684
        ]
      },
      "properties": {
        "Name": "Raul H. Castro Douglas-Agua Prieta Port of Entry",
        "City": "Douglas",
        "State": "Arizona",
        "County": "",
        "Address": "1st St & Pan American Avenue, Douglas, AZ 85607",
        "Sources": ""
      }
    },
    {
      "type": "Feature",
      "geometry": {
        "type": "Point",
        "coordinates": [
          -109.942817,
          31.334648
        ]
      },
      "properties": {
        "Name": "Naco Port of Entry",
        "City": "Naco",
        "State": "Arizona",
        "County": "",
        "Address": "3867 S Towner Ave, Naco, AZ 85620",
        "Sources": ""
      }
    },
    {
      "type": "Feature",
      "geometry": {
        "type": "Point",
        "coordinates": [
          -110.942758,
          31.332831
        ]
      },
      "properties": {
        "Name": "Nogales-Morley Gate Port of Entry",
        "City": "Nogales",
        "State": "Arizona",
        "County": "",
        "Address": "9 N Grand Ave, Nogales, AZ 85621",
        "Sources": ""
      }
    },
    {
      "type": "Feature",
      "geometry": {
        "type": "Point",
        "coordinates": [
          -110.96725,
          31.334031
        ]
      },
      "properties": {
        "Name": "Nogales-Mariposa Port of Entry",
        "City": "Nogales",
        "State": "Arizona",
        "County": "",
        "Address": "121-209 N Mariposa Rd, Nogales, AZ 85621",
        "Sources": ""
      }
    },
    {
      "type": "Feature",
      "geometry": {
        "type": "Point",
        "coordinates": [
          -111.544537,
          31.483035
        ]
      },
      "properties": {
        "Name": "Sasabe Port of Entry",
        "City": "Sasabe",
        "State": "Arizona",
        "County": "",
        "Address": "South Sasabe Highway, Sasabe, AZ 85633",
        "Sources": ""
      }
    },
    {
      "type": "Feature",
      "geometry": {
        "type": "Point",
        "coordinates": [
          -112.816923,
          31.880446
        ]
      },
      "properties": {
        "Name": "Lukeville-Sonoyta Port of Entry",
        "City": "Lukeville",
        "State": "Arizona",
        "County": "",
        "Address": "190 AZ-85, Lukeville, AZ 85341",
        "Sources": ""
      }
    },
    {
      "type": "Feature",
      "geometry": {
        "type": "Point",
        "coordinates": [
          -114.781406,
          32.485378
        ]
      },
      "properties": {
        "Name": "San Luis  Port of Entry",
        "City": "San Luis",
        "State": "Arizona",
        "County": "",
        "Address": "431 Main St, San Luis, AZ 85349",
        "Sources": ""
      }
    },
    {
      "type": "Feature",
      "geometry": {
        "type": "Point",
        "coordinates": [
          -114.69751,
          32.462392
        ]
      },
      "properties": {
        "Name": "San Luis II Port of Entry",
        "City": "Somerton",
        "State": "Arizona",
        "County": "",
        "Address": "Somerton, AZ 85350",
        "Sources": ""
      }
    },
    {
      "type": "Feature",
      "geometry": {
        "type": "Point",
        "coordinates": [
          -114.727803,
          32.718364
        ]
      },
      "properties": {
        "Name": "Andrade Port of Entry",
        "City": "Andrade",
        "State": "California",
        "County": "",
        "Address": "235 Andrade Rd, Winterhaven, CA 92283",
        "Sources": ""
      }
    },
    {
      "type": "Feature",
      "geometry": {
        "type": "Point",
        "coordinates": [
          -115.38871,
          32.675215
        ]
      },
      "properties": {
        "Name": "Calexico East Port of Entry",
        "City": "Calexico",
        "State": "California",
        "County": "",
        "Address": "1699 East Carr Rd, Calexico, CA 92231",
        "Sources": ""
      }
    },
    {
      "type": "Feature",
      "geometry": {
        "type": "Point",
        "coordinates": [
          -116.626965,
          32.576983
        ]
      },
      "properties": {
        "Name": "Tecate Port of Entry",
        "City": "Tecate",
        "State": "California",
        "County": "",
        "Address": "405 Tecate Rd, Tecate, CA 91980",
        "Sources": ""
      }
    },
    {
      "type": "Feature",
      "geometry": {
        "type": "Point",
        "coordinates": [
          -116.938606,
          32.550839
        ]
      },
      "properties": {
        "Name": "Otay Mesa Port of Entry",
        "City": "Otay",
        "State": "California",
        "County": "",
        "Address": "9777 Via De La Amistad, San Diego, CA 92154",
        "Sources": ""
      }
    },
    {
      "type": "Feature",
      "geometry": {
        "type": "Point",
        "coordinates": [
          -116.97444,
          32.548301
        ]
      },
      "properties": {
        "Name": "Cross Border Terminal, Tijuana International Airport",
        "City": "Otay",
        "State": "California",
        "County": "",
        "Address": "2745 Otay Pacific Drive, San Diego, CA 92154",
        "Sources": ""
      }
    }
  ]
}
